[
  {
    "id": "3",
    "name": "Big Sur",
    "lat": 36.2704,
    "lng": -121.8081,
    "notes": "Scenic drive along the Pacific Ocean",
    "createdAt": "2026-01-25T08:02:00.000Z"
  },
  {
    "id": "5",
    "name": "Santa Monica Pier",
    "lat": 34.01,
    "lng": -118.4962,
    "notes": "Iconic pier with rides and restaurants",
    "createdAt": "2026-01-25T08:04:00.000Z"
  },
  {
    "id": "4",
    "name": "Joshua Tree National Park",
    "lat": 33.8734,
    "lng": -115.901,
    "notes": "Desert landscapes and rock formations",
    "createdAt": "2026-01-25T08:03:00.000Z"
  },
  {
    "id": "1",
    "name": "Yosemite National Park",
    "lat": 37.8651,
    "lng": -119.5383,
    "notes": "Famous waterfalls and giant sequoias",
    "createdAt": "2026-01-25T08:00:00.000Z"
  },
  {
    "id": "2",
    "name": "Lake Tahoe",
    "lat": 39.0968,
    "lng": -120.0324,
    "notes": "Great for swimming and hiking",
    "createdAt": "2026-01-25T08:01:00.000Z"
  },
  {
    "id": "1769576263561",
    "name": "Mount Shasta",
    "lat": 41.3221585,
    "lng": -122.3206354,
    "notes": "Hollow mountain",
    "createdAt": "2026-01-28T04:57:43.561Z"
  }
]
